City_ID,City,Lat,Lng,Max Temp,Humidity,Cloudiness,Wind Speed,Country,Date
0,grytviken,-54.2811,-36.5092,37.09,62,8,7.38,GS,1712413556
1,saipan,15.1355,145.701,79.5,89,40,11.5,MP,1712413366
2,ingersoll,43.0334,-80.883,43.97,75,100,13.89,CA,1712413416
3,yellowknife,62.456,-114.3525,23.41,90,0,4.61,CA,1712413559
4,port-aux-francais,-49.35,70.2167,48.24,95,99,31.74,TF,1712413560
5,gadzhiyevo,69.2551,33.3362,24.1,84,100,7.36,RU,1712413561
6,bel ombre,-4.6167,55.4167,85.84,79,40,9.22,SC,1712413562
7,albany,42.6001,-73.9662,42.58,77,88,5.01,US,1712413265
8,iqaluit,63.7506,-68.5145,15.53,66,75,24.16,CA,1712413565
9,alaghsas,17.0187,8.0168,107.49,8,0,3.44,NE,1712413566
10,yazman,29.1212,71.7446,87.48,11,0,2.55,PK,1712413567
11,tiksi,71.6872,128.8694,-19.75,100,60,4.79,RU,1712413568
12,barcelos,41.5388,-8.6151,63.91,86,100,11.41,PT,1712413420
13,muisne,0.6,-80.0333,80.15,86,94,3.22,EC,1712413570
14,novyy urgal,51.0736,132.5642,25.47,82,47,3.78,RU,1712413571
15,port mathurin,-19.6833,63.4167,80.33,85,20,17.4,MU,1712413572
16,tazacorte,28.629,-17.9293,70.77,60,75,19.57,ES,1712413573
17,puerto natales,-51.7236,-72.4875,43.25,70,75,27.63,CL,1712413575
18,edinburgh of the seven seas,-37.0676,-12.3116,66.27,92,100,24.43,SH,1712413578
19,pristen',51.2355,36.6959,56.73,51,93,9.31,RU,1712413579
20,imbituba,-28.24,-48.6703,75.85,59,17,4.76,BR,1712413580
21,levuka,50.1834,-105.4011,37.22,65,96,10.25,CA,1712413581
22,adamstown,-25.066,-130.1015,71.56,70,99,6.04,PN,1712413582
23,thompson,55.7435,-97.8558,39.36,48,75,4.61,CA,1712413583
24,colonia,50.9333,6.95,80.96,33,0,19.57,DE,1712413434
25,puerto ayora,-0.7393,-90.3518,80.56,95,27,5.99,EC,1712413585
26,inari,68.906,27.0288,26.8,79,100,6.62,FI,1712413587
27,antsiranana,-12.2787,49.2917,83.16,78,40,11.5,MG,1712413588
28,new plymouth,-39.0667,174.0833,52.81,67,0,6.49,NZ,1712413383
29,waitangi,-43.9535,-176.5597,49.82,67,73,18.86,NZ,1712413590
30,la ronge,55.1001,-105.2842,35.85,75,75,6.91,CA,1712413591
31,mossel bay,-34.1831,22.146,62.53,74,100,23.09,ZA,1712413592
32,hermanus,-34.4187,19.2345,68.81,54,96,25.55,ZA,1712413593
33,naze,28.3667,129.4833,67.12,89,100,3.58,JP,1712413594
34,hammerfest,70.6634,23.6821,25.25,74,75,12.66,NO,1712413595
35,bichena,10.45,38.2,73.8,35,100,3.74,ET,1712413596
36,invercargill,-46.4,168.35,51.03,95,35,1.01,NZ,1712413597
37,fortuna,40.5982,-124.1573,42.35,90,93,8.01,US,1712413598
38,ambodifotatra,-16.9833,49.85,81.63,80,11,9.55,MG,1712413600
39,qaqortoq,60.7167,-46.0333,29.03,54,100,2.95,GL,1712413601
40,bogale,16.2833,95.4,85.35,63,4,11.39,MM,1712413602
41,badger,64.8,-147.5333,23.25,89,0,3.44,US,1712413603
42,cadale,2.7603,46.3222,85.77,70,100,14.83,SO,1712413604
43,dalandzadgad,43.5708,104.425,49.37,33,20,3.69,MN,1712413605
44,margaret river,-33.95,115.0667,65.21,66,29,11.92,AU,1712413607
45,blackmans bay,-43.0167,147.3167,58.53,84,100,4.5,AU,1712413608
46,princeville,45.7668,-61.2985,38.43,96,100,10.36,CA,1712413609
47,punta arenas,-53.15,-70.9167,46.42,70,20,34.52,CL,1712413602
48,port elizabeth,-33.918,25.5701,62.1,90,100,11.5,ZA,1712413612
49,nar'yan-mar,67.6713,53.087,19.11,89,49,15.01,RU,1712413613
50,papatowai,-46.5619,169.4708,46.63,93,23,3.89,NZ,1712413614
51,constantia,44.1833,28.65,68.7,62,100,13.27,RO,1712413615
52,aracuai,-16.8497,-42.0703,84.25,57,55,4.65,BR,1712413542
53,olonkinbyen,70.9221,-8.7187,20.61,57,100,11.41,SJ,1712413618
54,dingzhou,38.5131,114.9956,59.11,38,15,6.8,CN,1712413619
55,amga,60.8953,131.9608,14.9,94,100,8.39,RU,1712413620
56,ushuaia,-54.8,-68.3,44.26,76,75,8.05,AR,1712413582
57,uturoa,-16.7333,-151.4333,83.95,74,97,9.57,PF,1712413623
58,vilyuysk,63.7553,121.6247,-2.99,100,96,4.0,RU,1712413624
59,atafu village,-8.5421,-172.5159,83.25,75,8,4.45,TK,1712413613
60,al bayda',32.7627,21.7551,63.79,49,5,11.12,LY,1712413627
61,porto torres,40.835,8.3972,80.78,52,25,5.59,IT,1712413628
62,ribeira brava,32.65,-17.0667,70.43,67,20,12.37,PT,1712413629
63,palikir - national government center,6.9248,158.1611,81.34,83,40,4.61,FM,1712413631
64,bethel,41.3712,-73.414,44.89,65,75,18.41,US,1712413528
65,norrtalje,59.758,18.705,37.44,82,100,1.66,SE,1712413633
66,salekhard,66.53,66.6019,22.39,77,12,21.0,RU,1712413557
67,hotan,37.0997,79.9269,66.65,15,100,7.56,CN,1712413559
68,dudinka,69.4058,86.1778,-0.29,93,96,19.64,RU,1712413637
69,hasaki,35.7333,140.8333,59.29,92,100,12.73,JP,1712413639
70,merizo village,13.2658,144.6691,81.16,90,35,14.25,GU,1712413640
71,west island,-12.1568,96.8225,80.58,89,100,4.61,CC,1712413641
72,el granada,37.5027,-122.4694,49.35,80,0,9.22,US,1712413614
73,lethem,3.3803,-59.7968,89.76,49,64,14.36,GY,1712413644
74,weno,7.4515,151.8468,82.35,89,75,6.91,FM,1712413645
75,white hall,34.274,-92.091,55.11,59,0,12.66,US,1712413646
76,pisco,-13.7,-76.2167,73.45,83,84,3.44,PE,1712413648
77,bilibino,68.0546,166.4372,-9.6,90,52,3.89,RU,1712413649
78,port lincoln,-34.7333,135.8667,58.69,71,74,11.25,AU,1712413650
79,sandnessjoen,66.0217,12.6316,34.32,91,100,7.56,NO,1712413651
80,wanning,18.8003,110.3967,77.92,85,0,7.99,CN,1712413653
81,georgetown,5.4112,100.3354,87.73,74,20,2.3,MY,1712413450
82,ribeira grande,38.5167,-28.7,61.2,67,75,20.71,PT,1712413656
83,pitimbu,-7.4706,-34.8086,90.19,69,29,11.16,BR,1712413659
84,colchani,-20.3,-66.9333,59.02,55,92,14.56,BO,1712413660
85,carutapera,-1.195,-46.02,82.83,80,57,7.4,BR,1712413662
86,longyearbyen,78.2186,15.6401,-4.16,65,20,3.44,SJ,1712413663
87,vorgashor,67.5833,63.95,19.8,87,81,19.69,RU,1712413664
88,enewetak,11.3474,162.3373,80.87,78,66,20.02,MH,1712413666
89,port blair,11.6667,92.75,84.24,79,20,2.3,IN,1712413667
90,minas de marcona,-15.2119,-75.1103,66.2,79,76,11.14,PE,1712413668
91,kone,-21.0595,164.8658,75.87,84,100,4.94,NC,1712413670
92,san patricio,28.017,-97.5169,75.87,77,100,18.21,US,1712413671
93,haiku-pauwela,20.9219,-156.3051,71.04,83,75,12.66,US,1712413672
94,uyuni,-20.4597,-66.825,60.49,50,68,15.43,BO,1712413671
95,birjand,32.8663,59.2211,79.27,8,40,13.8,IR,1712413675
96,bredasdorp,-34.5322,20.0403,65.35,58,47,24.23,ZA,1712413676
97,pacific grove,36.6177,-121.9166,46.42,86,20,3.44,US,1712413463
98,lihue,21.9789,-159.3672,71.37,72,40,23.02,US,1712413679
99,lebu,-37.6167,-73.65,58.98,69,88,2.8,CL,1712413680
100,dabizhuang,39.1931,117.2558,68.0,49,4,8.95,CN,1712413681
101,port alfred,-33.5906,26.891,60.19,93,100,1.99,ZA,1712413682
102,saurimo,-9.6608,20.3916,81.68,61,73,3.44,AO,1712413684
103,svetlyy,54.675,20.1347,52.36,82,43,15.55,RU,1712413685
104,nezhinka,51.7676,55.3694,51.96,87,20,8.95,RU,1712413687
105,anadyr,64.75,177.4833,-7.1,84,0,6.71,RU,1712413473
106,petropavlovsk-kamchatsky,53.0452,158.6483,25.39,74,0,14.0,RU,1712413690
107,ploneour-lanvern,47.9,-4.2833,59.32,82,75,19.57,FR,1712413691
108,bondoukou,8.0333,-2.8,100.27,33,97,4.76,CI,1712413692
109,gamba,-2.65,10.0,84.61,73,89,3.53,GA,1712413694
110,okhotsk,59.3833,143.3,16.09,91,64,5.01,RU,1712413695
111,avarua,-21.2078,-159.775,77.05,100,75,5.75,CK,1712413696
112,nova sintra,14.8667,-24.7167,73.89,74,55,22.53,CV,1712413698
113,atherton,53.5237,-2.4935,64.29,60,49,8.99,GB,1712413699
114,mitsamiouli,-11.3847,43.2844,85.44,74,65,3.85,KM,1712413701
115,hadibu,12.65,54.0333,83.17,66,92,7.34,YE,1712413702
116,ternate,0.8,127.4,80.87,83,100,6.73,ID,1712413703
117,gunja,44.88,18.8533,82.4,36,36,6.35,HR,1712413705
118,severo-yeniseyskiy,60.3725,93.0408,34.57,100,100,3.0,RU,1712413706
119,louhans,46.6667,5.1667,79.27,44,35,8.99,FR,1712413707
120,kota kinabalu,5.9749,116.0724,78.78,94,20,4.61,MY,1712413649
121,klyuchi,52.2667,79.1667,57.42,40,90,4.99,RU,1712413710
122,isafjordur,66.0755,-23.124,26.64,63,100,19.57,IS,1712413711
123,chos malal,-37.3781,-70.2709,66.78,27,0,8.72,AR,1712413713
124,caucasia,7.9865,-75.1935,82.35,80,100,4.45,CO,1712413714
125,caleta de carquin,-11.0925,-77.6267,73.78,82,95,9.37,PE,1712413715
126,bizhbulyak,53.6967,54.2642,40.98,100,100,9.35,RU,1712413717
127,puerto san jose,13.9256,-90.8244,83.35,69,0,4.94,GT,1712413718
128,sisimiut,66.9395,-53.6735,26.38,74,100,8.68,GL,1712413719
129,plettenberg bay,-34.0527,23.3716,59.63,82,100,15.35,ZA,1712413721
130,tofol,5.3248,163.0078,82.22,81,96,17.2,FM,1712413722
131,barakani,-12.1356,44.4317,83.97,80,80,7.85,KM,1712413723
132,hithadhoo,-0.6,73.0833,83.68,76,100,13.22,MV,1712413724
133,karratha,-20.7377,116.8463,81.93,56,21,3.89,AU,1712413726
134,el bauga,18.262,33.9081,102.0,15,3,13.33,SD,1712413727
135,south yarmouth,41.6668,-70.1847,42.19,89,100,23.0,US,1712413728
136,lazaro cardenas,17.9583,-102.2,74.7,37,61,3.04,MX,1712413730
137,al qusiyah,27.4402,30.8184,86.27,13,0,17.74,EG,1712413731
138,biloela,-24.4167,150.5,73.15,89,100,2.35,AU,1712413732
139,monterrey,25.6667,-100.3167,78.75,70,100,10.0,MX,1712413440
140,east london,-33.0153,27.9116,59.94,94,100,2.3,ZA,1712413735
141,santa isabel,-23.3156,-46.2214,78.1,59,10,5.41,BR,1712413736
142,haparanda,65.8355,24.1368,21.25,89,75,7.45,SE,1712413678
143,college,64.8569,-147.8028,23.32,83,75,3.44,US,1712413554
144,santa elena de uairen,4.6167,-61.1333,78.12,53,100,7.65,VE,1712413743
145,bukene,-4.2333,32.8833,75.96,77,99,3.62,TZ,1712413744
146,ust-nera,64.5667,143.2,0.99,99,92,3.09,RU,1712413747
147,chibougamau,49.9168,-74.3659,37.02,60,0,4.61,CA,1712413748
148,ilulissat,69.2167,-51.1,23.02,54,75,2.3,GL,1712413749
149,chyorny yar,48.0624,46.1091,54.21,46,83,13.44,RU,1712413752
150,newman,37.3138,-121.0208,43.02,93,4,1.99,US,1712413753
151,alice town,25.7167,-79.3,71.49,51,0,11.61,BS,1712413755
152,nouadhibou,20.931,-17.0347,73.38,64,0,18.41,MR,1712413757
153,fort st. john,56.2499,-120.8529,24.69,93,20,10.36,CA,1712413513
154,kolonia town,6.964,158.206,82.4,83,40,4.61,FM,1712413761
155,sitka,57.0531,-135.33,37.29,81,75,6.91,US,1712413763
156,whitehorse,60.7161,-135.0538,29.17,86,75,9.22,CA,1712413764
157,williams lake,52.1415,-122.1445,27.97,74,20,2.3,CA,1712413652
158,bayanaul,50.7889,75.6956,55.42,42,100,5.03,KZ,1712413766
159,paita,-5.0892,-81.1144,74.59,74,99,11.23,PE,1712413768
160,borkum,53.5809,6.6915,74.95,68,82,21.09,DE,1712413577
161,ayr,55.4627,-4.6339,58.89,72,75,39.12,GB,1712413204
162,sinabang,2.4803,96.3801,81.82,84,21,5.44,ID,1712413772
163,olyokminsk,60.3736,120.4264,1.9,87,98,6.26,RU,1712413773
164,gorontalo,0.5412,123.0595,76.8,98,100,3.09,ID,1712413776
165,babayevo,59.3936,35.9371,40.15,87,100,6.4,RU,1712413777
166,san pedro,14.35,121.0167,83.43,72,20,5.99,PH,1712413779
167,belmonte,-15.8631,-38.8828,83.01,69,21,10.11,BR,1712413780
168,jiutai,44.1525,125.8328,46.74,32,19,9.35,CN,1712413781
169,utrik,11.2278,169.8474,80.31,79,98,20.6,MH,1712413783
170,wailua homesteads,22.0669,-159.378,70.75,73,40,23.02,US,1712413784
171,vadso,70.0744,29.7487,23.88,68,20,12.66,NO,1712413786
172,remire-montjoly,4.9167,-52.2667,87.84,66,75,16.11,GF,1712413787
173,broken hill,-31.95,141.4333,61.23,73,53,7.31,AU,1712413541
174,naha,26.2125,127.6811,71.87,94,40,2.3,JP,1712413499
175,la passe,45.5549,-0.8967,73.63,69,100,7.72,FR,1712413791
176,petatlan,17.5167,-101.2667,71.4,40,8,2.08,MX,1712413679
177,alice springs,-23.7,133.8833,58.55,51,0,4.61,AU,1712413797
178,cooper's town,26.8667,-77.5167,72.09,55,0,15.46,BS,1712413798
179,verkhovazh'ye,60.7472,42.0465,32.14,56,94,11.43,RU,1712413799
180,iskateley,67.6803,53.1512,19.02,89,60,15.01,RU,1712413801
181,goroka,-6.0834,145.3873,63.84,98,100,2.73,PG,1712413802
182,bomdila,27.25,92.4,42.8,86,99,6.67,IN,1712413803
183,aioun,16.6614,-9.6149,108.41,10,14,2.21,MR,1712413804
184,taoudenni,22.6783,-3.9836,101.34,6,0,8.23,ML,1712413806
185,ash shihaniyah,25.3686,51.2264,82.02,20,0,9.64,QA,1712413807
186,matelandia,-25.2408,-53.9964,94.28,33,7,8.41,BR,1712413808
187,hamilton,39.1834,-84.5333,48.81,67,0,3.44,US,1712413761
188,langsa,4.4683,97.9683,78.55,91,19,2.46,ID,1712413811
189,castro,-24.7911,-50.0119,69.08,82,86,9.71,BR,1712413671
190,kirakira,-10.4544,161.9205,79.83,88,100,8.46,SB,1712413814
191,ain sukhna,29.6002,32.3167,79.68,25,0,15.05,EG,1712413816
192,namdrik,5.5994,168.1028,82.08,81,84,16.75,MH,1712413817
193,stanley,54.868,-1.6985,63.99,56,20,23.02,GB,1712413818
194,puerto leguizamo,-0.1934,-74.7819,75.06,96,100,0.76,CO,1712413820
195,kingston,17.997,-76.7936,87.17,62,20,3.44,JM,1712413821
196,trinidad,-14.8333,-64.9,78.78,94,100,9.22,BO,1712413822
197,ati,13.2154,18.3353,105.66,8,98,2.82,TD,1712413824
198,ambon,-3.6954,128.1814,83.88,95,20,5.75,ID,1712413825
199,kham sakae saeng,15.3322,102.1728,98.94,31,1,3.91,TH,1712413826
200,fale old settlement,-9.3852,-171.2468,83.77,73,38,4.81,TK,1712413828
201,santa sylvina,-27.8326,-61.1375,78.06,66,85,10.0,AR,1712413829
202,baise city,23.8997,106.6133,73.35,99,100,4.59,CN,1712413831
203,pervomayskoye,43.919,46.7102,60.89,53,99,6.98,RU,1712413832
204,urangan,-25.3,152.9,74.19,96,76,7.0,AU,1712413833
205,nangomba,-10.9,38.5,76.8,94,94,3.85,TZ,1712413835
206,taroa,8.7058,171.2275,81.37,81,69,19.19,MH,1712413836
207,port douglas,-16.4833,145.4667,79.02,86,97,3.29,AU,1712413837
208,hampton bays,40.869,-72.5176,44.94,60,75,21.0,US,1712413839
209,malabar,-33.9667,151.25,69.13,76,0,5.75,AU,1712413840
210,dakoro,14.5106,6.765,106.57,6,91,9.6,NE,1712413841
211,vilyuchinsk,52.9306,158.4028,26.87,81,16,10.33,RU,1712413843
212,codrington,-38.2667,141.9667,59.56,96,100,5.08,AU,1712413844
213,holualoa,19.6228,-155.9522,69.64,85,75,4.61,US,1712413846
214,yokadouma,3.5167,15.05,76.26,83,100,2.89,CM,1712413847
215,mahina,-17.5065,-149.489,80.37,78,75,3.44,PF,1712413848
216,murghob,38.1702,73.9667,18.59,59,0,10.78,TJ,1712413851
217,horta,38.5333,-28.6333,60.44,74,75,20.71,PT,1712413852
218,puerto baquerizo moreno,-0.9,-89.6,79.79,83,20,9.22,EC,1712413853
219,bom jesus,-9.0744,-44.3586,87.96,57,14,6.82,BR,1712413855
220,chui,-33.6971,-53.4616,71.44,58,0,7.99,UY,1712413646
221,bathsheba,13.2167,-59.5167,84.81,79,75,19.57,BB,1712413857
222,labuan,5.2767,115.2417,79.16,94,20,0.0,MY,1712413859
223,marrakesh,31.6315,-8.0083,91.47,24,40,2.3,MA,1712413731
224,fada,9.5667,8.3,96.44,22,92,4.52,NG,1712413861
225,siwa oasis,29.2041,25.5195,81.37,14,0,10.4,EG,1712413863
226,shalqar,47.8333,59.6,63.54,36,94,6.82,KZ,1712413864
227,bonthe,7.5264,-12.505,86.94,65,100,12.5,SL,1712413866
228,mar del plata,-38.0023,-57.5575,77.52,61,0,14.97,AR,1712413867
229,den burg,53.0542,4.7972,73.94,40,75,26.46,NL,1712413868
230,sangkhla buri,15.1555,98.4536,77.47,77,99,1.1,TH,1712413870
231,khandyga,62.6667,135.6,15.53,98,100,3.15,RU,1712413871
232,mount isa,-20.7333,139.5,71.37,46,4,10.36,AU,1712413827
233,cidreira,-30.1811,-50.2056,73.6,55,0,12.35,BR,1712413875
234,isangel,-19.55,169.2667,74.43,77,100,8.66,VU,1712413877
235,armacao de buzios,-22.7469,-41.8817,84.25,75,4,7.76,BR,1712413878
236,ochakiv,46.6128,31.5498,51.96,79,65,11.81,UA,1712413880
237,laguna,38.421,-121.4238,44.44,89,0,8.05,US,1712413881
238,quimili,-27.6333,-62.4167,72.79,91,100,10.45,AR,1712413791
239,santa marinella,42.0345,11.8536,76.55,59,14,4.16,IT,1712413884
240,yinchuan,38.4681,106.2731,61.57,36,100,3.74,CN,1712413885
241,manadhoo,5.7667,73.3833,85.32,71,70,3.13,MV,1712413887
242,mahibadhoo,3.7833,72.9667,83.73,76,83,7.47,MV,1712413888
243,chonchi,-42.6128,-73.8092,56.12,92,99,6.44,CL,1712413889
244,dunedin,-45.8742,170.5036,50.81,94,96,5.23,NZ,1712413781
245,kotlas,61.2611,46.6556,31.05,46,99,11.99,RU,1712413891
246,kununurra,-15.7667,128.7333,75.18,83,81,0.0,AU,1712413893
247,fortaleza,-3.7227,-38.5247,87.93,83,40,4.61,BR,1712413820
248,mazagao,-0.115,-51.2894,87.85,56,95,5.95,BR,1712413897
249,papao,-17.75,-149.55,80.28,73,100,5.44,PF,1712413898
250,zabaykal'sk,49.6333,117.3167,30.0,32,1,8.46,RU,1712413899
251,luderitz,-26.6481,15.1594,66.99,57,0,28.32,NA,1712413901
252,kiunga,-6.1219,141.2906,74.88,99,76,1.68,PG,1712413902
253,faro,37.0194,-7.9322,71.19,88,40,11.5,PT,1712413903
254,ha giang,22.8333,104.9833,76.75,95,79,3.65,VN,1712413905
255,eraan,9.0629,117.7016,80.44,81,36,4.7,PH,1712413906
256,esquel,-42.9,-71.3167,50.04,79,91,10.76,AR,1712413907
257,el alto,-4.2714,-81.2147,78.46,66,95,6.55,PE,1712413909
258,kimbe,-5.5502,150.1429,77.22,94,92,3.98,PG,1712413910
259,pangody,65.85,74.4859,12.42,87,52,16.58,RU,1712413911
260,sakakah,29.9697,40.2064,92.77,19,96,1.48,SA,1712413913
261,baoshan,46.5586,131.4244,43.23,46,12,14.16,CN,1712413914
262,zhaotong,27.3167,103.7167,48.38,94,100,8.81,CN,1712413915
263,damghan,36.1683,54.348,73.65,17,0,8.01,IR,1712413916
264,shuangjiang,26.1547,109.7138,53.56,97,100,3.11,CN,1712413918
265,ponta pora,-22.5361,-55.7256,85.91,62,0,11.5,BR,1712413919
266,araioses,-2.89,-41.9031,89.58,66,40,11.5,BR,1712413920
267,edremit,39.5961,27.0244,71.35,46,40,11.5,TR,1712413922
268,tabas,33.5959,56.9244,84.33,12,0,6.85,IR,1712413923
269,kerikeri,-35.2268,173.9474,60.98,88,95,8.59,NZ,1712413925
270,port augusta,-32.5,137.7667,60.58,80,2,7.99,AU,1712413926
271,kharp,66.8014,65.8081,21.7,84,83,12.26,RU,1712413927
272,necochea,-38.5473,-58.7368,79.86,37,0,13.89,AR,1712413928
273,khovd,48.0056,91.6419,44.11,42,22,1.63,MN,1712413930
274,nizhnesortymskiy,62.4397,71.7603,11.01,84,45,9.98,RU,1712413931
275,glennville,31.9366,-81.9285,56.71,47,7,8.43,US,1712413932
276,whakatane,-37.9585,176.9854,57.78,82,64,6.46,NZ,1712413933
277,gisborne,-38.6533,178.0042,56.39,72,95,5.32,NZ,1712413865
278,flying fish cove,-10.4217,105.6791,80.28,89,75,5.75,CX,1712413936
279,st. john's,47.5649,-52.7093,38.28,86,100,14.97,CA,1712413937
280,chernyshevsk,52.5243,117.0174,22.39,45,1,5.7,RU,1712413938
281,talnakh,69.4865,88.3972,-7.01,94,89,11.12,RU,1712413939
282,richfield,44.8833,-93.283,47.17,59,0,9.22,US,1712413930
283,touros,-5.1989,-35.4608,86.86,66,47,9.84,BR,1712413942
284,talara,-4.5772,-81.2719,81.36,61,0,17.27,PE,1712413943
285,lata,40.1629,-8.3327,66.49,54,100,3.96,PT,1712413944
286,laibin,23.7,109.2667,64.42,90,100,5.95,CN,1712413946
287,kapa'a,22.0752,-159.319,71.92,72,40,23.02,US,1712413947
288,phitsanulok,16.9167,100.5,95.47,37,1,6.08,TH,1712413948
289,guerrero negro,27.9769,-114.0611,57.74,55,44,20.24,MX,1712413928
290,laojunmiao,39.8333,97.7333,45.9,41,95,6.89,CN,1712413950
291,uruacu,-14.5247,-49.1408,83.48,70,19,3.38,BR,1712413730
292,cockburn town,21.4612,-71.1419,79.29,74,1,4.92,TC,1712413953
293,buka,40.8108,69.1986,55.49,66,41,4.63,UZ,1712413954
294,tazovsky,67.4667,78.7,7.38,83,100,18.66,RU,1712413955
295,hawaiian paradise park,19.5933,-154.9731,69.87,89,75,12.66,US,1712413959
296,bull savanna,17.8868,-77.5902,81.77,62,31,6.78,JM,1712413960
297,cizre,37.3272,42.1903,78.01,33,0,6.91,TR,1712413961
298,griffith,41.5284,-87.4237,46.35,76,0,9.22,US,1712413889
299,sainte-marie,-20.8968,55.5496,82.56,78,100,3.44,RE,1712413964
300,ilhabela,-23.7781,-45.3581,80.15,69,40,3.02,BR,1712413965
301,margate,51.3813,1.3862,59.31,76,100,24.63,GB,1712413485
302,wotho,10.1657,166.0102,80.85,78,81,16.55,MH,1712413967
303,ixtapa,20.7,-105.2,63.63,88,40,3.44,MX,1712413970
304,truth or consequences,33.1284,-107.2528,48.9,42,0,12.66,US,1712413971
305,lodja,-3.4833,23.4333,78.39,73,98,3.44,CD,1712413972
306,genc,38.7507,40.5603,64.76,39,75,10.36,TR,1712413973
307,ambovombe,-25.1667,46.0833,74.44,83,100,6.71,MG,1712413975
308,melfi,40.9965,15.6514,73.96,50,59,4.03,IT,1712413976
309,sao felix do xingu,-6.6447,-51.995,82.94,70,100,4.23,BR,1712413770
310,sedhiou,12.7081,-15.5569,102.34,18,0,5.08,SN,1712413979
311,new norfolk,-42.7826,147.0587,59.72,97,100,0.65,AU,1712413981
312,vershino-darasunskiy,52.35,115.5167,24.26,41,0,9.31,RU,1712413940
313,byron bay,-28.65,153.6167,72.72,91,88,8.99,AU,1712413739
314,maragogi,-9.0122,-35.2225,86.13,64,43,8.41,BR,1712413798
315,onega,63.9061,38.1404,31.95,99,100,7.92,RU,1712413985
316,ulsteinvik,62.3432,5.8487,44.98,67,100,5.01,NO,1712413987
317,kodiak,57.79,-152.4072,26.11,74,0,4.61,US,1712413988
318,howrah,22.5892,88.3103,87.8,84,60,11.5,IN,1712413989
319,les cayes,18.2,-73.75,85.55,63,2,10.65,HT,1712413990
320,el calafate,-50.3408,-72.2768,44.46,74,79,19.95,AR,1712413734
321,nemuro,43.3236,145.575,38.37,90,3,16.46,JP,1712413993
322,copala,16.65,-98.9833,83.64,45,78,1.99,MX,1712413994
323,freetown,8.484,-13.2299,82.04,75,100,9.48,SL,1712413995
324,mount airy,36.4993,-80.6073,50.0,49,0,13.8,US,1712413835
325,rezh,57.37,61.4043,26.96,54,12,6.69,RU,1712413998
326,gibraltar,36.1447,-5.3526,71.55,53,0,11.5,GI,1712413823
327,venice,27.0998,-82.4543,75.06,61,20,10.36,US,1712413929
328,san francisco de la paz,14.9,-86.2,83.91,52,21,2.44,HN,1712414001
329,kolokani,13.5728,-8.0339,105.96,14,24,7.78,ML,1712414002
330,charlestown,-32.95,151.6667,68.41,91,82,6.4,AU,1712414004
331,jamestown,42.097,-79.2353,42.39,100,100,12.66,US,1712413798
332,piet retief,-27.0071,30.8132,60.94,95,89,4.68,ZA,1712414006
333,figuig (centre),32.1089,-1.2286,87.3,9,32,21.63,MA,1712414007
334,kudahuvadhoo,2.6708,72.8944,83.68,77,100,8.97,MV,1712414009
335,aral,40.5156,81.2636,58.6,31,1,10.07,CN,1712414010
336,kibre mengist,5.8833,38.9833,67.86,81,100,5.35,ET,1712414011
337,salinas,36.6777,-121.6555,46.81,92,0,8.05,US,1712413390
338,suva,-18.1416,178.4415,78.28,89,75,0.0,FJ,1712413920
339,grootfontein,-19.5667,18.1167,83.77,42,100,2.3,NA,1712414015
340,puerto ayacucho,5.6639,-67.6236,89.19,56,100,3.47,VE,1712414016
341,meadow lake,34.8014,-106.5436,40.06,43,34,30.69,US,1712414017
342,monterey,36.2505,-121.2516,32.9,87,3,2.46,US,1712413731
343,agdam,39.991,46.9274,57.15,63,100,3.0,AZ,1712414021
344,gaigeturi,33.4644,126.3183,53.65,82,0,6.91,KR,1712414022
345,kangding,30.0513,101.9603,43.65,99,97,3.29,CN,1712414023
346,fremantle,-32.05,115.7667,78.91,40,32,6.91,AU,1712414025
347,ta`u,-14.2336,-169.5144,82.89,75,100,7.09,AS,1712414026
348,ghat,24.9647,10.1728,91.18,7,98,17.63,LY,1712414027
349,susuman,62.7833,148.1667,-3.01,97,29,1.99,RU,1712414029
350,al hadd,26.2456,50.6542,84.18,32,0,10.36,BH,1712414030
351,esikhaleni,-28.871,31.8996,70.45,86,100,7.7,ZA,1712414031
352,yeppoon,-23.1333,150.7333,71.38,85,100,4.12,AU,1712414032
353,la'ie,21.6477,-157.9253,71.46,77,32,15.01,US,1712414033
354,kalemie,-5.9475,29.1947,77.4,81,100,5.61,CD,1712414034
355,antigonish,45.6169,-61.9986,38.14,96,100,1.01,CA,1712413858
356,callao,-12.0667,-77.15,71.89,83,100,4.61,PE,1712414036
357,berdigestyakh,62.0989,126.6992,7.63,92,100,8.16,RU,1712414038
358,bafq,31.6128,55.4107,82.74,9,5,9.01,IR,1712414039
359,selfoss,63.9331,-20.9971,32.04,36,65,27.29,IS,1712414040
360,sarangani,5.4033,125.4636,82.42,84,10,24.72,PH,1712414042
361,nicoya,10.1483,-85.452,89.58,50,100,10.78,CR,1712414043
362,nuku'alofa,-21.1333,-175.2,75.54,83,20,8.05,TO,1712414044
363,kenai,60.5544,-151.2583,26.15,93,20,0.0,US,1712414046
364,namibe,-15.1961,12.1522,77.88,71,100,10.27,AO,1712414047
365,swift current,50.2834,-107.8014,36.41,100,100,11.5,CA,1712414048
366,filey,54.21,-0.2892,66.06,62,99,11.99,GB,1712414049
367,lucapa,-8.4192,20.7447,79.79,75,92,2.86,AO,1712414051
368,tongliao,43.6125,122.2653,49.59,35,0,5.46,CN,1712414052
369,faya-largeau,17.9257,19.1043,102.31,6,12,18.01,TD,1712414054
370,cabedelo,-6.9811,-34.8339,90.27,66,49,11.43,BR,1712414055
371,tamandare,-8.7597,-35.1047,86.94,62,25,8.01,BR,1712414056
372,nagqu,31.5,92.0,35.73,18,100,8.12,CN,1712414058
373,marka,1.7159,44.7717,85.23,70,100,12.84,SO,1712414059
374,kodinsk,58.6881,99.1844,31.44,98,100,3.87,RU,1712414060
375,nanzhang chengguanzhen,31.7839,111.8275,54.46,81,81,4.54,CN,1712414061
376,goz beida,13.95,20.55,108.43,28,81,9.24,TD,1712414063
377,aykhal,66.0,111.5,-9.04,93,17,9.86,RU,1712413998
378,tamanrasset,22.785,5.5228,87.71,7,0,17.27,DZ,1712414065
379,nadi,-17.8,177.4167,77.0,83,20,10.36,FJ,1712413902
380,rio tuba,8.5061,117.4317,81.72,76,44,5.91,PH,1712414068
381,mejit,10.2753,170.8646,80.44,77,99,20.94,MH,1712414069
382,ha'il,27.5219,41.6907,86.02,25,75,11.5,SA,1712414071
383,lompoc,34.6391,-120.4579,43.92,83,20,8.01,US,1712413868
384,rio gallegos,-51.6226,-69.2181,46.45,71,20,18.41,AR,1712414046
385,mil'kovo,55.6078,37.7956,48.69,83,87,5.82,RU,1712414075
386,batangafo,7.3008,18.2833,81.79,62,100,5.01,CF,1712414076
387,yoloten,37.2989,62.3597,69.37,25,41,11.14,TM,1712413827
388,envira,-7.3,-70.2167,80.46,84,99,1.92,BR,1712414079
389,udachny,66.4167,112.4,-7.55,91,17,7.36,RU,1712414080
390,vanimo,-2.6741,141.3028,79.18,89,89,3.85,PG,1712414081
391,ballinasloe,53.3275,-8.2194,54.07,73,91,22.57,IE,1712414046
392,benghazi,32.1167,20.0667,66.88,60,14,16.24,LY,1712414084
393,tawau,4.2498,117.8871,78.93,81,80,4.38,MY,1712414085
394,hell-ville,-13.4,48.2667,89.47,75,40,4.61,MG,1712414086
395,panjab,34.388,67.0233,27.79,76,29,2.91,AF,1712414088
396,midelt,32.6852,-4.7451,76.01,14,100,15.61,MA,1712414089
397,bad gandersheim,51.8667,10.0333,77.32,48,90,14.18,DE,1712414090
398,pundong,-7.9522,110.3486,78.39,84,100,3.15,ID,1712414093
399,jayapura,-2.5333,140.7,74.59,89,96,2.77,ID,1712414094
400,toliara,-23.35,43.6667,79.97,70,15,13.15,MG,1712414096
401,ancud,-41.8697,-73.8203,55.35,92,100,16.87,CL,1712413897
402,siping,43.1633,124.3686,49.96,40,16,4.63,CN,1712414098
403,tual,-5.6667,132.75,83.59,77,100,6.17,ID,1712414099
404,porto novo,6.4965,2.6036,91.22,57,81,11.21,BJ,1712413807
405,biltine,14.5333,20.9167,102.96,11,46,1.92,TD,1712414103
406,marquette,46.5333,-87.6335,40.35,59,16,1.99,US,1712414104
407,geraldton,-28.7667,114.6,64.81,94,86,0.0,AU,1712413829
408,rio grande,-32.035,-52.0986,77.11,54,0,13.96,BR,1712414107
409,es castell,39.8795,4.2854,75.88,50,0,12.66,ES,1712414108
410,lospalos,-8.5186,127.0025,73.8,95,100,0.47,TL,1712414110
411,yemetsk,63.4721,41.7941,30.31,96,100,12.35,RU,1712414111
412,tralee,52.2704,-9.7026,55.65,62,75,32.21,IE,1712414113
413,el kseur,36.6794,4.8555,76.05,44,0,6.91,DZ,1712414114
414,luanda,-8.8368,13.2343,82.08,76,83,15.05,AO,1712413921
415,klaksvik,62.2266,-6.589,36.52,99,100,47.02,FO,1712414117
416,tocache,-8.1842,-76.5125,81.48,73,99,1.48,PE,1712414118
417,medyn',54.9692,35.8586,43.75,78,100,7.0,RU,1712414119
418,mbandaka,0.0487,18.2603,75.09,92,100,4.21,CD,1712414121
419,lovington,32.944,-103.3485,61.03,34,0,11.01,US,1712414122
420,cortina d'ampezzo,46.5384,12.1377,72.16,52,2,1.7,IT,1712414123
421,magadan,59.5667,150.8,18.54,94,79,4.45,RU,1712414124
422,bam,29.106,58.357,81.1,10,0,10.04,IR,1712414126
423,valparaiso,-33.0393,-71.6273,68.14,62,0,4.61,CL,1712413835
424,myitkyina,25.3833,97.4,77.45,50,24,2.98,MM,1712414128
425,songea,-10.6833,35.65,78.15,69,75,8.05,TZ,1712414129
426,chipata,-13.6333,32.65,74.77,82,100,3.56,ZM,1712414131
427,tindouf,27.6711,-8.1474,95.45,9,58,9.22,DZ,1712414132
428,mugia,43.1041,-9.2179,61.92,85,99,21.03,ES,1712414133
429,mata-utu,-13.2816,-176.1745,83.68,76,100,9.06,WF,1712414134
430,xique xique,-10.8217,-42.7311,88.23,54,56,4.54,BR,1712414135
431,revda,56.801,59.9303,27.32,54,44,9.22,RU,1712414136
432,zhangjiakou,40.81,114.8794,54.99,34,0,4.59,CN,1712414137
433,lashio,22.9333,97.75,77.09,33,0,1.5,MM,1712414138
434,tura,25.5198,90.2201,79.68,29,68,3.96,IN,1712414139
435,thunder bay,48.4001,-89.3168,37.38,64,0,1.14,CA,1712414103
436,hastings,50.8552,0.5729,65.19,83,100,20.15,GB,1712413994
437,yuzhno-kurilsk,44.0306,145.8556,36.37,88,6,10.56,RU,1712414144
438,isabela,6.7085,121.9711,81.99,80,78,3.85,PH,1712414146
439,sussex,41.1834,-74.6663,46.08,60,75,14.97,US,1712414079
440,le vauclin,14.5452,-60.8388,84.25,79,75,18.41,MQ,1712414148
441,manokwari,-0.8667,134.0833,80.06,82,87,3.31,ID,1712414149
442,ghanzi,-21.5667,21.7833,85.21,33,95,6.6,BW,1712414150
443,burang,30.25,81.1667,13.75,79,17,4.7,CN,1712414151
444,guaduas,5.0669,-74.595,79.12,66,86,3.42,CO,1712414152
445,kyzyl-suu,42.3414,78.0056,46.89,61,100,4.97,KG,1712414153
446,vila franca do campo,37.7167,-25.4333,64.89,99,79,14.03,PT,1712414155
447,viedma,-40.8135,-62.9967,82.09,25,0,21.68,AR,1712413940
448,motygino,58.1831,94.7592,32.79,100,100,1.99,RU,1712414157
449,dadukou,26.5479,101.7054,75.04,29,24,7.96,CN,1712414158
450,brak,27.5496,14.2714,87.64,9,0,13.15,LY,1712414159
451,puerto lleras,3.0223,-73.4044,76.89,93,91,1.81,CO,1712414161
452,derebucak,37.3918,31.5092,51.1,52,48,14.36,TR,1712414162
453,kalmunai,7.4167,81.8167,82.38,76,92,7.63,LK,1712414163
454,ornskoldsvik,63.2909,18.7153,32.95,74,100,9.22,SE,1712414165
455,la gi,10.6667,107.7833,79.99,82,23,10.02,VN,1712413998
456,egilsstadir,65.2653,-14.3948,30.11,69,100,16.11,IS,1712414167
457,asyqata,40.8994,68.3611,56.84,74,27,10.09,KZ,1712414168
458,ust'-ilimsk,58.0006,102.6619,25.45,73,95,3.0,RU,1712414169
459,nizhniy ingash,56.2,96.53,34.81,98,76,1.92,RU,1712414171
460,katsuura,35.1333,140.3,57.22,97,100,6.73,JP,1712414172
461,port-gentil,-0.7193,8.7815,81.55,81,100,13.15,GA,1712414173
462,drayton valley,53.2168,-114.9854,31.53,85,100,3.04,CA,1712414106
463,vernon,50.2581,-119.2691,42.75,87,99,0.0,CA,1712414176
464,kayar,14.9192,-17.1211,81.55,54,44,12.88,SN,1712414177
465,nishinoomote,30.7333,131.0,66.13,92,100,18.01,JP,1712414179
466,kupang,-10.1667,123.5833,81.18,94,93,2.3,ID,1712414180
467,kayangel,8.0823,134.7173,83.17,72,49,19.08,PW,1712414181
468,acapulco de juarez,16.8634,-99.8901,76.82,65,0,4.61,MX,1712414183
469,gunjur,13.2019,-16.7339,86.07,48,0,9.22,GM,1712414184
470,concordia,-31.393,-58.0209,71.78,63,0,11.5,AR,1712414178
471,danville,36.586,-79.395,51.3,48,40,12.66,US,1712413916
472,mwinilunga,-11.7358,24.4293,72.55,85,100,3.44,ZM,1712414188
473,jiayuguan,39.8167,98.3,52.27,36,100,5.41,CN,1712414189
474,cagsiay,14.2167,121.75,79.54,85,40,13.6,PH,1712414190
475,chernomorskoye,45.5039,32.6997,54.88,69,100,10.83,UA,1712414192
476,mananjary,-21.2167,48.3333,77.74,84,0,6.78,MG,1712414193
477,mana,5.6592,-53.7767,85.17,63,100,11.12,GF,1712414194
478,tabuk,17.4189,121.4443,77.59,75,90,7.25,PH,1712414195
479,fomboni,-12.28,43.7425,85.26,79,65,9.48,KM,1712414197
480,calama,-22.4667,-68.9333,66.69,26,0,11.5,CL,1712414200
481,nuuk,64.1835,-51.7216,29.01,69,100,19.57,GL,1712414100
482,alofi,-19.0595,-169.9187,76.89,94,90,4.61,NU,1712414202
483,nikolayevsk-on-amure,53.1406,140.73,32.22,93,100,5.01,RU,1712414119
484,mwanza,-2.5167,32.9,71.65,88,75,3.44,TZ,1712413999
485,akobo,7.4344,3.9497,89.15,74,40,6.91,NG,1712414205
486,aasiaat,68.7098,-52.8699,19.36,68,100,4.07,GL,1712414207
487,moquegua,-17.1956,-70.9353,71.1,67,100,4.9,PE,1712414110
488,carnarvon,-24.8667,113.6333,75.69,65,69,19.66,AU,1712414209
489,kerema,-7.9631,145.7785,79.57,88,99,4.76,PG,1712414211
490,termoli,41.9888,14.9895,75.78,70,14,5.84,IT,1712414212
491,bubaque,11.2833,-15.8333,76.57,70,33,9.1,GW,1712414213
492,calabozo,8.9242,-67.4293,94.1,36,100,10.8,VE,1712414214
493,peterhof,59.8833,29.9,39.0,99,100,5.23,RU,1712414215
494,santa maria da vitoria,-13.3947,-44.1886,74.37,94,100,1.16,BR,1712414217
495,mocimboa,-11.3167,40.35,81.41,87,96,6.26,MZ,1712414219
496,kangiwa,12.5521,3.8187,105.93,18,100,3.02,NG,1712414221
497,saint-francois,46.4154,3.9054,77.68,37,0,11.5,FR,1712414222
498,arkhara,49.4212,130.0842,39.76,41,100,7.0,RU,1712414223
499,tamiahua,21.2667,-97.45,75.92,82,100,11.72,MX,1712414224
500,ridder,50.355,83.5133,40.05,66,47,5.7,KZ,1712414167
501,talakan,50.3167,130.3667,30.63,64,100,6.98,RU,1712414226
502,san antonio de pale,-1.4014,5.6325,84.42,75,83,6.78,GQ,1712414227
503,cabo san lucas,22.8909,-109.9124,71.51,57,100,1.01,MX,1712414228
504,puerto deseado,-47.7503,-65.8938,63.86,44,99,35.08,AR,1712414229
505,hilo,19.7297,-155.09,70.29,88,75,12.66,US,1712414044
506,farafangana,-22.8167,47.8333,77.59,87,3,8.46,MG,1712414231
507,pirai do sul,-24.5261,-49.9486,74.19,60,53,6.51,BR,1712414232
508,coronel dorrego,-38.7187,-61.2873,83.44,20,0,18.48,AR,1712414233
509,kourou,5.1552,-52.6478,87.85,64,100,9.53,GF,1712414234
510,poyang,28.9924,116.6675,59.23,90,100,3.53,CN,1712414236
511,zholymbet,51.7433,71.7122,46.18,84,4,8.3,KZ,1712414237
512,tarinkot,32.6268,65.8733,69.22,22,42,5.77,AF,1712414238
513,yeniseysk,58.4497,92.1703,37.94,100,100,1.99,RU,1712413997
514,kartuzy,54.3342,18.1974,63.61,63,20,19.57,PL,1712414241
515,oroqen zizhiqi,50.5667,123.7167,23.14,48,2,9.08,CN,1712414242
516,bodo,67.28,14.405,35.78,45,20,2.3,NO,1712414243
517,gagliano del capo,39.8442,18.3695,72.25,52,91,5.75,IT,1712414244
518,fuglafjordur,62.244,-6.814,36.07,98,100,41.61,FO,1712414245
519,zeya,53.75,127.2667,15.49,61,96,9.26,RU,1712413996
520,monteagudo,-19.8167,-63.9833,79.41,62,80,7.54,BO,1712414247
521,hargeysa,9.56,44.065,81.75,49,90,13.62,SO,1712414248
522,lagoa,39.05,-27.9833,58.12,71,100,25.46,PT,1712414249
523,mandalay,21.9747,96.0836,95.56,21,10,3.96,MM,1712414250
524,bogandinskiy,56.8937,65.8938,32.27,63,2,9.19,RU,1712414252
525,nadym,65.5333,72.5167,16.97,77,41,19.46,RU,1712414253
526,chipinge,-20.1883,32.6236,74.84,65,50,8.01,ZW,1712413970
527,ryotsu-minato,38.0833,138.4333,50.11,67,89,1.23,JP,1712414255
528,polyarnyy,69.1989,33.4478,23.54,83,100,7.7,RU,1712414256
529,ngama,11.7833,17.1667,105.48,14,99,6.42,TD,1712414258
530,yaren,-0.5472,166.916,82.35,80,27,13.6,NR,1712414259
531,saint john,45.2727,-66.0677,42.03,81,100,14.97,CA,1712414164
532,madinat ash shamal,26.1293,51.2009,78.75,44,0,6.44,QA,1712414261
533,coquimbo,-29.9533,-71.3436,56.93,100,100,4.61,CL,1712414164
534,mount gambier,-37.8333,140.7667,59.99,79,100,7.76,AU,1712413979
535,ohafia-ifigh,5.6146,7.8119,86.9,61,99,2.33,NG,1712414265
536,visby,57.6409,18.296,45.03,93,100,8.05,SE,1712414266
537,tolanaro,-25.0319,46.9987,82.47,74,0,11.5,MG,1712414268
538,bumba,2.1833,22.4667,74.77,93,100,3.47,CD,1712414269
539,kruisfontein,-34.0033,24.7314,58.89,91,100,17.11,ZA,1712414270
540,sao joao da barra,-21.6403,-41.0511,82.49,68,0,6.67,BR,1712414271
541,dubbo,-32.25,148.6167,64.53,88,100,5.75,AU,1712414273
542,praia da vitoria,38.7333,-27.0667,66.45,48,20,14.74,PT,1712414274
543,maintirano,-18.0667,44.0167,84.56,71,3,13.78,MG,1712414275
544,champerico,14.3,-91.9167,84.74,62,0,9.6,GT,1712414276
545,fort mcmurray,56.7268,-111.381,31.59,100,100,6.91,CA,1712414217
546,paphos,34.7667,32.4167,72.23,73,20,10.36,CY,1712414278
547,sechura,-5.5569,-80.8222,77.56,65,100,11.92,PE,1712414280
548,kismayo,-0.3582,42.5454,85.8,69,88,10.92,SO,1712414281
549,senador guiomard,-10.1522,-67.7392,85.75,96,98,2.48,BR,1712414282
550,igrim,63.1906,64.4162,15.21,90,21,3.76,RU,1712414283
551,crane,31.3974,-102.3501,69.78,18,2,22.84,US,1712414285
552,lagoa santa,-19.6272,-43.8897,81.57,60,20,3.44,BR,1712414286
553,rongelap,11.1635,166.8941,81.0,77,67,18.84,MH,1712414287
554,arkhangel'sk,64.5401,40.5433,25.12,93,100,13.42,RU,1712414288
555,cuito,-12.3833,16.9333,73.33,67,88,4.05,AO,1712414289
556,nabire,-3.3667,135.4833,77.29,95,100,2.66,ID,1712414291
557,tangalle,6.024,80.7911,82.56,80,61,4.21,LK,1712414292
558,afaahiti,-17.75,-149.2833,78.06,81,94,7.96,PF,1712414293
559,al kharijah,25.4514,30.5464,85.32,10,0,18.84,EG,1712414294
560,curvelo,-18.7564,-44.4308,85.23,48,0,4.18,BR,1712414297
561,chiredzi,-21.05,31.6667,82.38,56,89,12.88,ZW,1712414299
562,talcahuano,-36.7167,-73.1167,56.88,72,75,5.75,CL,1712414018
563,huayin,34.5675,110.0921,62.44,55,100,6.6,CN,1712414301
564,santa cruz,-17.8,-63.1667,85.46,65,40,11.5,BO,1712414103
565,fisterra,42.9049,-9.2629,61.75,84,96,19.86,ES,1712414304
566,kuala tungkal,-0.8167,103.4667,80.22,88,100,3.2,ID,1712414305
567,bovalino,38.149,16.174,73.29,43,89,2.51,IT,1712414306
568,shimoda,34.6667,138.95,56.1,90,100,7.07,JP,1712414309
569,nizhneangarsk,55.7833,109.55,10.0,83,18,7.0,RU,1712414310
570,solnechnyy,50.7214,136.6319,37.02,94,100,1.92,RU,1712414313
571,oxelosund,58.6706,17.1015,41.38,93,75,3.44,SE,1712414314
572,walvis bay,-22.9575,14.5053,76.15,50,0,20.71,NA,1712414315
573,iquique,-20.2208,-70.1431,73.44,74,99,7.0,CL,1712414160
574,lakes,61.6071,-149.3086,29.62,91,100,4.61,US,1712414318
575,bayanhongor,46.7167,100.1167,34.16,51,41,3.96,MN,1712414319
576,keflavik,64.0049,-22.5624,33.71,51,0,14.97,IS,1712414320
577,as sulayyil,20.4607,45.5779,93.45,22,5,12.39,SA,1712414322
578,sanming,26.2486,117.6186,65.37,99,100,2.35,CN,1712414323
579,shantipur,23.25,88.4667,89.04,53,93,8.48,IN,1712414324
580,guatire,10.4762,-66.5427,91.69,45,100,3.2,VE,1712414326
581,severnoye,56.3491,78.3619,48.97,89,51,5.99,RU,1712414327
582,harper,4.375,-7.7169,87.04,66,86,7.52,LR,1712414328
583,lorengau,-2.0226,147.2712,81.73,79,88,7.18,PG,1712414330
584,ambala,30.3783,76.7808,78.85,11,0,8.23,IN,1712414331
585,orchard homes,46.8633,-114.0484,37.6,95,100,1.01,US,1712414332
586,kilju,40.9642,129.3278,52.16,50,3,5.3,KP,1712414333
587,archangelos,36.2149,28.1149,73.18,36,0,16.55,GR,1712414334
